
{
    "cities": {
      "BJ": {
        "name": "Beijing",
        "capital": "Tiananmen Square",
        "longitude": 116.4074,
        "latitude": 39.9042
      },
      "SH": {
        "name": "Shanghai",
        "capital": "The Bund",
        "longitude": 121.4737,
        "latitude": 31.2304
      },
      "SZ": {
        "name": "Shenzhen",
        "capital": "Shenzhen",
        "longitude": 114.0579,
        "latitude": 22.5431
      },
      "HN": {
        "name": "HaNoi",
        "capital": "Hoan Kiem Lake",
        "longitude": 105.8342,
        "latitude": 21.0285
      },
      "HCM": {
        "name": "HoChiMinh",
        "capital": "Ho Chi Minh City Hall Square",
        "longitude": 106.6297,
        "latitude": 10.8231
      },
      "DN": {
        "name": "DaNang",
        "capital": "DaNang",
        "longitude": 108.2022,
        "latitude": 16.0473
      }
}
}
